,colony,street,street_number,postal_code,zone,directions,lat,lon
264,EL ARENAL,PROLONGACION SA,43,45350,Zapopan,"PROLONGACION SA 43, EL ARENAL, Zapopan",20.74234227,-103.33373909
107,ZONA INDUSTRIAL SUR,CALLE 16,2526,44940,Guadalajara,"CALLE 16 2526, ZONA INDUSTRIAL SUR, Guadalajara",20.6412259,-103.35947148
20,BLANCO Y CUELLAR,EMILIO RABAZA,2132,44730,Guadalajara,"EMILIO RABAZA 2132, BLANCO Y CUELLAR, Guadalajara",20.67964,-103.3047158
32,PANORAMICA HUENTITAN,CALZADA,4500,44259,Guadalajara,"CALZADA 4500, PANORAMICA HUENTITAN, Guadalajara",20.736203,-103.312081
214,EL COLLY URBANO I,VOLCAN VESUBIO,2321,45070,Zapopan,"VOLCAN VESUBIO 2321, EL COLLY URBANO I, Zapopan",20.6413426,-103.4276583
192,REAL DE VALDEPE?S,CALLE G 1470 TO,1470,45130,Zapopan,"CALLE G 1470 TO 1470, REAL DE VALDEPE?S, Zapopan",20.75259018,-103.4048233
179,INDIGENA D MEZQUITAN,18 DE MARZO,409,45190,Zapopan,"18 DE MARZO 409, INDIGENA D MEZQUITAN, Zapopan",20.738673,-103.331924
154,LA MOJONERA,DE BARAJAS,425,45134,Zapopan,"DE BARAJAS 425, LA MOJONERA, Zapopan",20.78831785,-103.45075595
275,JARDINES D NVO MEXIC,SEGUNDA NORTE,5699,45138,Zapopan,"SEGUNDA NORTE 5699, JARDINES D NVO MEXIC, Zapopan",20.7695635,-103.4477057
84,TETLAN,JOSE RAMOS,4342,44820,Guadalajara,"JOSE RAMOS 4342, TETLAN, Guadalajara",20.6609958,-103.2714154
152,LOMAS DE MIRAMAR,PUERTO CHAMELA,314,45060,Zapopan,"PUERTO CHAMELA 314, LOMAS DE MIRAMAR, Zapopan",20.63579117,-103.44676658
90,OBLATOS,BATALLA DE IZUC,2508,44700,Guadalajara,"BATALLA DE IZUC 2508, OBLATOS, Guadalajara",20.698347,-103.288479
166,COLINAS D LA PRIMAVE,CASCADA,147,45066,Zapopan,"CASCADA 147, COLINAS D LA PRIMAVE, Zapopan",20.637151,-103.4700562
95,ZALATE II,OTILIO GONZALEZ,1116,44760,Guadalajara,"OTILIO GONZALEZ 1116, ZALATE II, Guadalajara",20.679092,-103.2750349
72,LADRON DE GUEVARA,FRAY LUIS DE PA,443,44600,Guadalajara,"FRAY LUIS DE PA 443, LADRON DE GUEVARA, Guadalajara",20.6842089,-103.379311
47,GUADALUPANA,CELEDONIO PADIL,2162,44220,Guadalajara,"CELEDONIO PADIL 2162, GUADALUPANA, Guadalajara",20.7099819,-103.355384
119,BOSQUES D L VICTORIA,FAUNA,2765,44540,Guadalajara,"FAUNA 2765, BOSQUES D L VICTORIA, Guadalajara",20.644029,-103.388121
240,FRACC CUSPIDE,CAMINO AL POTRE,1200,45200,Zapopan,"CAMINO AL POTRE 1200, FRACC CUSPIDE, Zapopan",20.802884,-103.4970855
62,SAN VICENTE,MONTES MARCIANO,2173,44330,Guadalajara,"MONTES MARCIANO 2173, SAN VICENTE, Guadalajara",20.70378,-103.3159849
104,AYUNTAMIENTO,BERNARDO DE BAL,1170,44620,Guadalajara,"BERNARDO DE BAL 1170, AYUNTAMIENTO, Guadalajara",20.695428,-103.369627
165,CANTEROS,PRIVADA CANTERO,1564,45190,Zapopan,"PRIVADA CANTERO 1564, CANTEROS, Zapopan",20.727049,-103.338664
34,MORELOS,PELICANO,1272,44910,Guadalajara,"PELICANO 1272, MORELOS, Guadalajara",20.6506979,-103.360933
245,EL BRISE#O,CONSTELACION,7,45236,Zapopan,"CONSTELACION 7, EL BRISE#O, Zapopan",20.6229076,-103.4384665
16,LOMAS DEL PARADERO,LUIS QUINTANAR,746,44840,Guadalajara,"LUIS QUINTANAR 746, LOMAS DEL PARADERO, Guadalajara",20.650031,-103.3199848
261,COLLY SITIO,ROMANA,6570,45036,Zapopan,"ROMANA 6570, COLLY SITIO, Zapopan",20.65393358,-103.4396834
258,ARENALES TAPATIOS,DIAMANTE,114,45066,Zapopan,"DIAMANTE 114, ARENALES TAPATIOS, Zapopan",20.6339582,-103.4563939
145,SAN ANDRES,AVELINO M PRESA,3335,44810,Guadalajara,"AVELINO M PRESA 3335, SAN ANDRES, Guadalajara",20.661081,-103.2907359
89,BOSQUES D L VICTORIA,PENINSULA,2713,44540,Guadalajara,"PENINSULA 2713, BOSQUES D L VICTORIA, Guadalajara",20.6458589,-103.3923679
160,ALTAMIRA,AV AMERICA,580,45160,Zapopan,"AV AMERICA 580, ALTAMIRA, Zapopan",20.7170404,-103.3886043
112,MORELOS,CISNE,1332,44910,Guadalajara,"CISNE 1332, MORELOS, Guadalajara",20.6543829,-103.359092
102,ECHEVERRIA,JOSE ROJO,958,44970,Guadalajara,"JOSE ROJO 958, ECHEVERRIA, Guadalajara",20.62216715,-103.36095184
53,LA AURORA,JARDINES DE BAB,20,44790,Guadalajara,"JARDINES DE BAB 20, LA AURORA, Guadalajara",20.66066767,-103.28141363
135,TALPITA,SANTO TOMAS,1786,44719,Guadalajara,"SANTO TOMAS 1786, TALPITA, Guadalajara",20.68355178,-103.31008927
29,SANTA MARIA,SAN MATEO,1407,44350,Guadalajara,"SAN MATEO 1407, SANTA MARIA, Guadalajara",20.6879689,-103.3157451
256,EL BRISE?,PASEO DE LA MAT,200,45236,Zapopan,"PASEO DE LA MAT 200, EL BRISE?, Zapopan",20.61881066,-103.43599554
216,FRACC HACIENDA LAS PALOMAS,CALLE DEL AGUA,365,45200,Zapopan,"CALLE DEL AGUA 365, FRACC HACIENDA LAS PALOMAS, Zapopan",20.7285236,-103.3937157
0,U H FOVISSSTE ESTADI,LISBOA,28,44307,Guadalajara,"LISBOA 28, U H FOVISSSTE ESTADI, Guadalajara",20.7108869,-103.3308462
170,PASEOS DEL BRISE#O,PASEOS DE LOS I,1,45236,Zapopan,"PASEOS DE LOS I 1, PASEOS DEL BRISE#O, Zapopan",20.618144,-103.434739
247,INF LA TUZANIA,AV DE LAS PALME,1246,45138,Zapopan,"AV DE LAS PALME 1246, INF LA TUZANIA, Zapopan",20.7416922,-103.4190553
148,LA FLORESTA DEL COLLI,BOULEVARD PUERT,26,45116,Zapopan,"BOULEVARD PUERT 26, LA FLORESTA DEL COLLI, Zapopan",20.70902792,-103.41388692
13,SAN ANDRES,GOMEZ FARIAS,2319,44810,Guadalajara,"GOMEZ FARIAS 2319, SAN ANDRES, Guadalajara",20.66197709,-103.30791285
124,HIGUERILLAS,MARIANO RODRIGU,2669,44470,Guadalajara,"MARIANO RODRIGU 2669, HIGUERILLAS, Guadalajara",20.632835,-103.349006
121,5 DE MAYO,RAMON MARQUEZ,362,44970,Guadalajara,"RAMON MARQUEZ 362, 5 DE MAYO, Guadalajara",20.6248619,-103.3530199
220,INF LA TUZANIA,AND OYAMELES,1124,45138,Zapopan,"AND OYAMELES 1124, INF LA TUZANIA, Zapopan",20.7370922,-103.4154143
182,SAN JUAN DE OCOTAN,MIGUEL MIRAMON,13,45019,Zapopan,"MIGUEL MIRAMON 13, SAN JUAN DE OCOTAN, Zapopan",20.764462,-103.452206
117,VALLARTA SAN JORGE,EUCLIDES,3302,44690,Guadalajara,"EUCLIDES 3302, VALLARTA SAN JORGE, Guadalajara",20.6751303,-103.3983219
262,LINDAVISTA,ALLENDE,216,45169,Zapopan,"ALLENDE 216, LINDAVISTA, Zapopan",20.721194,-103.3988204
169,VILLAS SAN IGNACIO,PRIV LUIS G MON,337,45180,Zapopan,"PRIV LUIS G MON 337, VILLAS SAN IGNACIO, Zapopan",20.73366544,-103.35291841
63,MIRAVALLE,JOSE JARAMILLO,526,44990,Guadalajara,"JOSE JARAMILLO 526, MIRAVALLE, Guadalajara",20.6156665,-103.3528171
61,LA AURORA,SALVADOR LOPEZ,1750,44790,Guadalajara,"SALVADOR LOPEZ 1750, LA AURORA, Guadalajara",20.6494585,-103.3388108
219,LOS ROBLES,CALLE LOS ROBLE,395,45134,Zapopan,"CALLE LOS ROBLE 395, LOS ROBLES, Zapopan",20.76709012,-103.43385955
189,EJIDAL LOMA BONITA,PEDRO MORENO,3308,45085,Zapopan,"PEDRO MORENO 3308, EJIDAL LOMA BONITA, Zapopan",20.6317603,-103.4051996
83,RINCONADA DEL BOSQUE,AV ECONOMOS,6951,44510,Guadalajara,"AV ECONOMOS 6951, RINCONADA DEL BOSQUE, Guadalajara",20.65605164,-103.39377594
91,HUENTITAN EL BAJO,VOLCAN FUJIYAMA,4413,44250,Guadalajara,"VOLCAN FUJIYAMA 4413, HUENTITAN EL BAJO, Guadalajara",20.738969,-103.3189689
197,SAN ISIDRO EJIDAL,NUEVO MEXICO,250,45147,Zapopan,"NUEVO MEXICO 250, SAN ISIDRO EJIDAL, Zapopan",20.726598,-103.398205
209,FRACC JARDINES DE BELEN,TORONJA,41,45200,Zapopan,"TORONJA 41, FRACC JARDINES DE BELEN, Zapopan",20.8124,-103.4826
241,PRADOS TEPEYAC,PRADO DE LAS RO,308,45050,Zapopan,"PRADO DE LAS RO 308, PRADOS TEPEYAC, Zapopan",20.65714869,-103.41220962
28,OBREROS D L CONSTRUC,ABEDUL,274,44900,Guadalajara,"ABEDUL 274, OBREROS D L CONSTRUC, Guadalajara",20.6545689,-103.3645921
77,DIVISION DEL NORTE,TERUEL,3693,44230,Guadalajara,"TERUEL 3693, DIVISION DEL NORTE, Guadalajara",20.721705,-103.3379679
221,HDA SAN ISIDRO,LA VILLA,455,45147,Zapopan,"LA VILLA 455, HDA SAN ISIDRO, Zapopan",20.7289036,-103.3982935
39,PROGRESO,FRANCISCO SARAB,235,44730,Guadalajara,"FRANCISCO SARAB 235, PROGRESO, Guadalajara",20.6687989,-103.3080091
58,RESIDENCIAL LA CRUZ,ISLA ABACO,3086,44950,Guadalajara,"ISLA ABACO 3086, RESIDENCIAL LA CRUZ, Guadalajara",20.637418,-103.37829
276,EL BATAN,ANDADOR AGUA AZ,44,45190,Zapopan,"ANDADOR AGUA AZ 44, EL BATAN, Zapopan",20.72135701,-103.3443436
243,REAL DE VALDEPE?S,RINCONADA DEL C,1327,45130,Zapopan,"RINCONADA DEL C 1327, REAL DE VALDEPE?S, Zapopan",20.75622519,-103.40385961
171,VILLA UNIVESITARIA,AV PATRIA,1446,45110,Zapopan,"AV PATRIA 1446, VILLA UNIVESITARIA, Zapopan",20.6974505,-103.4156311
133,U H ATLAS,RIO VOLGA,1386,44870,Guadalajara,"RIO VOLGA 1386, U H ATLAS, Guadalajara",20.6505549,-103.330706
222,LA ESTRADA,HIDALAGO,6,45200,Zapopan,"HIDALAGO 6, LA ESTRADA, Zapopan",20.79264101,-103.47565388
81,OBLATOS PONIENTE,HACIENDA DE TAL,2191,44700,Guadalajara,"HACIENDA DE TAL 2191, OBLATOS PONIENTE, Guadalajara",20.692611,-103.2984039
198,RANCHO NUEVO,CELERINO NAVARR,4135,44240,Zapopan,"CELERINO NAVARR 4135, RANCHO NUEVO, Zapopan",20.717712,-103.32276
18,AMERICANA,MEXICALLTZINGO,1944,44160,Guadalajara,"MEXICALLTZINGO 1944, AMERICANA, Guadalajara",20.668444,-103.3673828
132,EL CARMEN,FRANCISCO MARCO,2616,44980,Guadalajara,"FRANCISCO MARCO 2616, EL CARMEN, Guadalajara",20.6231889,-103.3850919
98,AMERICANA,COLONIAS,221,44160,Guadalajara,"COLONIAS 221, AMERICANA, Guadalajara",20.6727475,-103.3659644
59,INDEPENDENCIA PTE,ROGELIO BACON,1676,44290,Guadalajara,"ROGELIO BACON 1676, INDEPENDENCIA PTE, Guadalajara",20.7036,-103.3334499
150,FRACC CUSPIDE,VALLE DE TESIST,198,45200,Zapopan,"VALLE DE TESIST 198, FRACC CUSPIDE, Zapopan",20.795812,-103.4822218
252,CIUDAD DEL SOL,QUETZALCOATL,232,45050,Zapopan,"QUETZALCOATL 232, CIUDAD DEL SOL, Zapopan",20.6492751,-103.4071483
99,TRANSITO,AV CIRCUNVALANC,479,44298,Guadalajara,"AV CIRCUNVALANC 479, TRANSITO, Guadalajara",20.7038709,-103.3370089
129,DEL FRESNO,CIPRES,1738,44900,Guadalajara,"CIPRES 1738, DEL FRESNO, Guadalajara",20.6579289,-103.3661019
122,U. H. BENITO JUAREZ II,CREDITO,4049,44770,Guadalajara,"CREDITO 4049, U. H. BENITO JUAREZ II, Guadalajara",20.6661078,-103.2755658
15,OBLATOS PONIENTE,HACIENDA DE LAS,2299,44700,Guadalajara,"HACIENDA DE LAS 2299, OBLATOS PONIENTE, Guadalajara",20.6942949,-103.2973538
200,EL HUMEDO,RIO ACAPONETA,2,45200,Zapopan,"RIO ACAPONETA 2, EL HUMEDO, Zapopan",20.795757,-103.493083
237,VICENTE GUERRERO,C CEDROS,15,45134,Zapopan,"C CEDROS 15, VICENTE GUERRERO, Zapopan",20.741835,-103.3386413
224,COPALITA,AV AMARANTO,175,45200,Zapopan,"AV AMARANTO 175, COPALITA, Zapopan",20.80905867,-103.45311198
204,REAL DE VALDEPE?S,ALAMBIQUE,51,45130,Zapopan,"ALAMBIQUE 51, REAL DE VALDEPE?S, Zapopan",20.7560515,-103.4015362
217,VILLA FONTANA DIAMANTE,ARENISCA,1896,45200,Zapopan,"ARENISCA 1896, VILLA FONTANA DIAMANTE, Zapopan",20.77322945,-103.4750089
279,LOMAS DL VALLE VI UN,CANCER,3992,45129,Zapopan,"CANCER 3992, LOMAS DL VALLE VI UN, Zapopan",20.6850586,-103.4084621
103,U H EL SAUZ INF,JAIME TORRES B,3090,44987,Guadalajara,"JAIME TORRES B 3090, U H EL SAUZ INF, Guadalajara",20.623719,-103.3945749
249,FRACC REAL DEL BOSQUE,BERROCAL,449,45130,Zapopan,"BERROCAL 449, FRACC REAL DEL BOSQUE, Zapopan",20.7461139,-103.3969141
5,BATALLON SN PATRICIO,CALZADA INDEPEN,503,44300,Guadalajara,"CALZADA INDEPEN 503, BATALLON SN PATRICIO, Guadalajara",20.7137381,-103.32089456
21,PENAL,PEDRO CELESTINO,482,44730,Guadalajara,"PEDRO CELESTINO 482, PENAL, Guadalajara",20.678154,-103.319812
1,INDEPENDENCIA,ROGELIO BACON,2280,44290,Guadalajara,"ROGELIO BACON 2280, INDEPENDENCIA, Guadalajara",20.7036221,-103.3334825
109,VALLARTA SAN JORGE,TUCIDIDES,156,44690,Guadalajara,"TUCIDIDES 156, VALLARTA SAN JORGE, Guadalajara",20.678198,-103.3960161
183,MESA DE LOS OCOTES,PASEO DE LOS PI,3153,45189,Zapopan,"PASEO DE LOS PI 3153, MESA DE LOS OCOTES, Zapopan",20.761889,-103.347178
194,COLINAS DE ATEMAJAC,AV AURELIO ORTE,1176,45170,Zapopan,"AV AURELIO ORTE 1176, COLINAS DE ATEMAJAC, Zapopan",20.7213469,-103.3671295
168,PARAISOS DEL COLLY,GALEANA,1068,45069,Zapopan,"GALEANA 1068, PARAISOS DEL COLLY, Zapopan",20.6508438,-103.4542078
87,COUNTRY CLUB,AV JORGE ALVARE,1535,44610,Guadalajara,"AV JORGE ALVARE 1535, COUNTRY CLUB, Guadalajara",20.7037391,-103.3652489
156,RESIDENCIAL TESISTAN,PARQUE MEXICANO,150,45200,Zapopan,"PARQUE MEXICANO 150, RESIDENCIAL TESISTAN, Zapopan",20.665307,-103.40409989
66,BALCONES DE OBLATOS,ROSA RODRIGUEZ,3876,44720,Guadalajara,"ROSA RODRIGUEZ 3876, BALCONES DE OBLATOS, Guadalajara",20.6952319,-103.2769238
174,UNIDAD JARDINES SEAT,JARDINES DE LOS,1233,45180,Zapopan,"JARDINES DE LOS 1233, UNIDAD JARDINES SEAT, Zapopan",20.7511529,-103.36893085
44,MARAVILLA,MESA DEL NORTE,1272,44700,Guadalajara,"MESA DEL NORTE 1272, MARAVILLA, Guadalajara",20.6996615,-103.3042162
134,CANTARRANAS,MIGUEL BERNAL,3327,44829,Guadalajara,"MIGUEL BERNAL 3327, CANTARRANAS, Guadalajara",20.65865637,-103.2906591
