,colony,street,street_number,postal_code,zone,directions,lat,lon
276,EL BATAN,ANDADOR AGUA AZ,44,45190,Zapopan,"ANDADOR AGUA AZ 44, EL BATAN, Zapopan",20.72135701,-103.3443436
2,BOSQUES D LA CANTERA,PRIV OPALO,17,44306,Guadalajara,"PRIV OPALO 17, BOSQUES D LA CANTERA, Guadalajara",20.7155989,-103.3157318
157,RESIDENCIAL GUADALUP,MISION SAN PATR,350,45030,Zapopan,"MISION SAN PATR 350, RESIDENCIAL GUADALUP, Zapopan",20.6538728,-103.4331985
53,LA AURORA,JARDINES DE BAB,20,44790,Guadalajara,"JARDINES DE BAB 20, LA AURORA, Guadalajara",20.66066767,-103.28141363
79,JARDINES DE STA ISAB,STA MARTHA,3165,44300,Guadalajara,"STA MARTHA 3165, JARDINES DE STA ISAB, Guadalajara",20.714658,-103.313579
243,REAL DE VALDEPE?S,RINCONADA DEL C,1327,45130,Zapopan,"RINCONADA DEL C 1327, REAL DE VALDEPE?S, Zapopan",20.75622519,-103.40385961
259,JARDINES  DEL BOSQUE,PLACERES,806,44520,Zapopan,"PLACERES 806, JARDINES  DEL BOSQUE, Zapopan",20.6650289,-103.3922401
176,VIRREYES RESIDENCIAL,AV NACIONES UNI,6904,45110,Zapopan,"AV NACIONES UNI 6904, VIRREYES RESIDENCIAL, Zapopan",20.695938,-103.442158
36,JARDINES DE LA CRUZ,ISLA ASENCION,3108,44950,Guadalajara,"ISLA ASENCION 3108, JARDINES DE LA CRUZ, Guadalajara",20.637455,-103.380993
223,MESA DE LOS OCOTES,BETABEL,23,45189,Zapopan,"BETABEL 23, MESA DE LOS OCOTES, Zapopan",20.7672275,-103.3435708
232,LAS AGUILAS,RIO TOMATLAN,800,45080,Zapopan,"RIO TOMATLAN 800, LAS AGUILAS, Zapopan",20.625904,-103.407993
105,JARDINES DE STA ISAB,COMBATE DE SACR,228,44300,Guadalajara,"COMBATE DE SACR 228, JARDINES DE STA ISAB, Guadalajara",20.716095,-103.314819
216,FRACC HACIENDA LAS PALOMAS,CALLE DEL AGUA,365,45200,Zapopan,"CALLE DEL AGUA 365, FRACC HACIENDA LAS PALOMAS, Zapopan",20.7285236,-103.3937157
274,VISTA HERMOSA,AV VISTA HERMO,3763,45189,Zapopan,"AV VISTA HERMO 3763, VISTA HERMOSA, Zapopan",20.7616693,-103.3347796
173,BUGAMBILIAS,PASEO DE LA VIC,4952,45238,Zapopan,"PASEO DE LA VIC 4952, BUGAMBILIAS, Zapopan",20.60869227,-103.47949598
108,VILLA VICENTE GUERRE,ISLA USTICA,3318,44860,Guadalajara,"ISLA USTICA 3318, VILLA VICENTE GUERRE, Guadalajara",20.632482,-103.395812
41,VALENTIN GOMEZ FARIA,CANUTO ELIAS,3414,44977,Guadalajara,"CANUTO ELIAS 3414, VALENTIN GOMEZ FARIA, Guadalajara",20.6190587,-103.3629314
37,SANTA TERESITA,ALFREDO CHAVERO,16,44600,Guadalajara,"ALFREDO CHAVERO 16, SANTA TERESITA, Guadalajara",20.683706,-103.368627
280,MESA COLORADA PTE,DELLI,1825,45189,Zapopan,"DELLI 1825, MESA COLORADA PTE, Zapopan",20.7704348,-103.3478953
227,MESA COLORADA PTE,ANAHUAC,52,45189,Zapopan,"ANAHUAC 52, MESA COLORADA PTE, Zapopan",20.7593548,-103.3370537
135,TALPITA,SANTO TOMAS,1786,44719,Guadalajara,"SANTO TOMAS 1786, TALPITA, Guadalajara",20.68355178,-103.31008927
275,JARDINES D NVO MEXIC,SEGUNDA NORTE,5699,45138,Zapopan,"SEGUNDA NORTE 5699, JARDINES D NVO MEXIC, Zapopan",20.7695635,-103.4477057
40,ARANDAS,HACIENDA LA ERR,1877,44720,Guadalajara,"HACIENDA LA ERR 1877, ARANDAS, Guadalajara",20.68584251,-103.2726593
199,JARDINES D NVO MEXIC,SEXTA PTE,535,45138,Zapopan,"SEXTA PTE 535, JARDINES D NVO MEXIC, Zapopan",20.76243185,-103.43949475
137,LOMAS DE RIO VERDE,DEMOSTENES,3550,44720,Guadalajara,"DEMOSTENES 3550, LOMAS DE RIO VERDE, Guadalajara",20.68517129,-103.28554658
183,MESA DE LOS OCOTES,PASEO DE LOS PI,3153,45189,Zapopan,"PASEO DE LOS PI 3153, MESA DE LOS OCOTES, Zapopan",20.761889,-103.347178
89,BOSQUES D L VICTORIA,PENINSULA,2713,44540,Guadalajara,"PENINSULA 2713, BOSQUES D L VICTORIA, Guadalajara",20.6458589,-103.3923679
175,RINCONADA DL AUDITOR,ALBERTO CINTA,39,45180,Zapopan,"ALBERTO CINTA 39, RINCONADA DL AUDITOR, Zapopan",20.7367901,-103.3424097
272,12 DE DICIEMBRE,TRUENO,260,45068,Zapopan,"TRUENO 260, 12 DE DICIEMBRE, Zapopan",20.6491888,-103.457067
247,INF LA TUZANIA,AV DE LAS PALME,1246,45138,Zapopan,"AV DE LAS PALME 1246, INF LA TUZANIA, Zapopan",20.7416922,-103.4190553
186,VILLAS SAN IGNACIO,PABLO QUIROGA,215,45180,Zapopan,"PABLO QUIROGA 215, VILLAS SAN IGNACIO, Zapopan",20.72433,-103.3668977
38,MIRAVALLE II,HERMENEGILDO BU,4308,44990,Guadalajara,"HERMENEGILDO BU 4308, MIRAVALLE II, Guadalajara",20.6127044,-103.3450677
221,HDA SAN ISIDRO,LA VILLA,455,45147,Zapopan,"LA VILLA 455, HDA SAN ISIDRO, Zapopan",20.7289036,-103.3982935
60,SANTA ROSA,MELQUIADES CAMP,2289,44700,Guadalajara,"MELQUIADES CAMP 2289, SANTA ROSA, Guadalajara",20.702616,-103.287933
228,VILLA FONTANA DIAMANTE,AV JADE,86,45200,Zapopan,"AV JADE 86, VILLA FONTANA DIAMANTE, Zapopan",20.80761483,-103.48160873
273,REAL QUINTAS DEL VALLE,CIRCUITO REAL S,0,45138,Zapopan,"CIRCUITO REAL S 0, REAL QUINTAS DEL VALLE, Zapopan",20.73714441,-103.44750205
218,EJIDAL LOMA BONITA,PEDRO MORENO,3205,45085,Zapopan,"PEDRO MORENO 3205, EJIDAL LOMA BONITA, Zapopan",20.6313377,-103.4015789
90,OBLATOS,BATALLA DE IZUC,2508,44700,Guadalajara,"BATALLA DE IZUC 2508, OBLATOS, Guadalajara",20.698347,-103.288479
81,OBLATOS PONIENTE,HACIENDA DE TAL,2191,44700,Guadalajara,"HACIENDA DE TAL 2191, OBLATOS PONIENTE, Guadalajara",20.692611,-103.2984039
195,ARENALES TAPATIOS,AV GUADALUPE,132,45066,Zapopan,"AV GUADALUPE 132, ARENALES TAPATIOS, Zapopan",20.6367828,-103.4602462
56,UNIDAD BELISARIO DOM,JOSE LUIS MORA,1212,44329,Guadalajara,"JOSE LUIS MORA 1212, UNIDAD BELISARIO DOM, Guadalajara",20.6848539,-103.321828
255,VIGIA I,DEL CORRAL,604,45140,Zapopan,"DEL CORRAL 604, VIGIA I, Zapopan",20.7317015,-103.395332
215,VALLE DE LOS MOLINOS,BERNA,75,45200,Zapopan,"BERNA 75, VALLE DE LOS MOLINOS, Zapopan",20.8547918,-103.42304733
246,HDA SAN ISIDRO,EJIDO,570,45147,Zapopan,"EJIDO 570, HDA SAN ISIDRO, Zapopan",20.7334016,-103.3978425
180,VALLE REAL,PASEO SAN ARTUR,685,45019,Zapopan,"PASEO SAN ARTUR 685, VALLE REAL, Zapopan",20.722536,-103.44067
283,EL CENTINELA 2,HIDALGO,310,45187,Zapopan,"HIDALGO 310, EL CENTINELA 2, Zapopan",20.758003,-103.380373
96,RNDA DE PAZ,ALBANILES,543,44860,Guadalajara,"ALBANILES 543, RNDA DE PAZ, Guadalajara",20.64808,-103.307708
279,LOMAS DL VALLE VI UN,CANCER,3992,45129,Zapopan,"CANCER 3992, LOMAS DL VALLE VI UN, Zapopan",20.6850586,-103.4084621
174,UNIDAD JARDINES SEAT,JARDINES DE LOS,1233,45180,Zapopan,"JARDINES DE LOS 1233, UNIDAD JARDINES SEAT, Zapopan",20.7511529,-103.36893085
138,SAN RAFAEL,CARLOS GONZALEZ,280,44810,Guadalajara,"CARLOS GONZALEZ 280, SAN RAFAEL, Guadalajara",20.6571099,-103.2966291
113,JARDINES DEL COUNTRY,ENRIQUE DIAZ DE,2336,44210,Guadalajara,"ENRIQUE DIAZ DE 2336, JARDINES DEL COUNTRY, Guadalajara",20.712932,-103.360833
202,"FRACC, LOS MOLINOS",PLATA,70,45200,Zapopan,"PLATA 70, FRACC, LOS MOLINOS, Zapopan",20.84836438,-103.42263338
61,LA AURORA,SALVADOR LOPEZ,1750,44790,Guadalajara,"SALVADOR LOPEZ 1750, LA AURORA, Guadalajara",20.6494585,-103.3388108
271,NUEVO MEXICO,COPALITA,2711,45138,Zapopan,"COPALITA 2711, NUEVO MEXICO, Zapopan",20.7647307,-103.43970355
109,VALLARTA SAN JORGE,TUCIDIDES,156,44690,Guadalajara,"TUCIDIDES 156, VALLARTA SAN JORGE, Guadalajara",20.678198,-103.3960161
245,EL BRISE#O,CONSTELACION,7,45236,Zapopan,"CONSTELACION 7, EL BRISE#O, Zapopan",20.6229076,-103.4384665
160,ALTAMIRA,AV AMERICA,580,45160,Zapopan,"AV AMERICA 580, ALTAMIRA, Zapopan",20.7170404,-103.3886043
82,MEZQUITAN COUNTRY,DIAGONAL NAJERA,1876,44260,Guadalajara,"DIAGONAL NAJERA 1876, MEZQUITAN COUNTRY, Guadalajara",20.69196018,-103.3647616
5,BATALLON SN PATRICIO,CALZADA INDEPEN,503,44300,Guadalajara,"CALZADA INDEPEN 503, BATALLON SN PATRICIO, Guadalajara",20.7137381,-103.32089456
117,VALLARTA SAN JORGE,EUCLIDES,3302,44690,Guadalajara,"EUCLIDES 3302, VALLARTA SAN JORGE, Guadalajara",20.6751303,-103.3983219
127,HELIODORO HERNANDEZ,MIGUEL SANCHEZ,3789,44720,Guadalajara,"MIGUEL SANCHEZ 3789, HELIODORO HERNANDEZ, Guadalajara",20.6948729,-103.278313
8,RINCONADA DE HUENTITAN,JUAN CARRASCO,5234,44250,Guadalajara,"JUAN CARRASCO 5234, RINCONADA DE HUENTITAN, Guadalajara",20.7334639,-103.3219648
201,HOGARES D NVO MEXICO,AV AVIACION,36,45138,Zapopan,"AV AVIACION 36, HOGARES D NVO MEXICO, Zapopan",20.73702555,-103.44966935
198,RANCHO NUEVO,CELERINO NAVARR,4135,44240,Zapopan,"CELERINO NAVARR 4135, RANCHO NUEVO, Zapopan",20.717712,-103.32276
260,EL ARENAL,CUAUHTEMOC,132,45350,Zapopan,"CUAUHTEMOC 132, EL ARENAL, Zapopan",20.7250865,-103.3945404
124,HIGUERILLAS,MARIANO RODRIGU,2669,44470,Guadalajara,"MARIANO RODRIGU 2669, HIGUERILLAS, Guadalajara",20.632835,-103.349006
30,EL MANANTIAL S REFOR,AVDE LA PATRIA,202,44470,Guadalajara,"AVDE LA PATRIA 202, EL MANANTIAL S REFOR, Guadalajara",20.621289,-103.342166
98,AMERICANA,COLONIAS,221,44160,Guadalajara,"COLONIAS 221, AMERICANA, Guadalajara",20.6727475,-103.3659644
214,EL COLLY URBANO I,VOLCAN VESUBIO,2321,45070,Zapopan,"VOLCAN VESUBIO 2321, EL COLLY URBANO I, Zapopan",20.6413426,-103.4276583
152,LOMAS DE MIRAMAR,PUERTO CHAMELA,314,45060,Zapopan,"PUERTO CHAMELA 314, LOMAS DE MIRAMAR, Zapopan",20.63579117,-103.44676658
147,LOMAS DE MIRAMAR,URANIO,31,45060,Zapopan,"URANIO 31, LOMAS DE MIRAMAR, Zapopan",20.64202975,-103.46426675
200,EL HUMEDO,RIO ACAPONETA,2,45200,Zapopan,"RIO ACAPONETA 2, EL HUMEDO, Zapopan",20.795757,-103.493083
42,EL CENTRO,JUAREZ,400,44100,Guadalajara,"JUAREZ 400, EL CENTRO, Guadalajara",20.6751683,-103.348691
22,GARIBAY,DAMASCO,785,44750,Guadalajara,"DAMASCO 785, GARIBAY, Guadalajara",20.6735769,-103.2949879
112,MORELOS,CISNE,1332,44910,Guadalajara,"CISNE 1332, MORELOS, Guadalajara",20.6543829,-103.359092
158,LA FLORIDA,FLORAL,15,45234,Zapopan,"FLORAL 15, LA FLORIDA, Zapopan",20.5997014,-103.4273219
267,MIGUEL HIDALGO,15 DE SEPTIEMBR,3017,45186,Zapopan,"15 DE SEPTIEMBR 3017, MIGUEL HIDALGO, Zapopan",20.748896,-103.340873
194,COLINAS DE ATEMAJAC,AV AURELIO ORTE,1176,45170,Zapopan,"AV AURELIO ORTE 1176, COLINAS DE ATEMAJAC, Zapopan",20.7213469,-103.3671295
129,DEL FRESNO,CIPRES,1738,44900,Guadalajara,"CIPRES 1738, DEL FRESNO, Guadalajara",20.6579289,-103.3661019
80,JARDINES DEL NILO,HERNANDO ALVARA,3254,44860,Guadalajara,"HERNANDO ALVARA 3254, JARDINES DEL NILO, Guadalajara",20.6437163,-103.2937008
234,PASEOS DEL SOL,TOMAS BALCAZAR,5404,45079,Zapopan,"TOMAS BALCAZAR 5404, PASEOS DEL SOL, Zapopan",20.637128,-103.427021
63,MIRAVALLE,JOSE JARAMILLO,526,44990,Guadalajara,"JOSE JARAMILLO 526, MIRAVALLE, Guadalajara",20.6156665,-103.3528171
284,LA VENTA DEL ASTILLE,JILGEROS,33,45221,Zapopan,"JILGEROS 33, LA VENTA DEL ASTILLE, Zapopan",20.7322419,-103.53937
75,GENERAL REAL,PENSADOR MEXICA,1070,44400,Guadalajara,"PENSADOR MEXICA 1070, GENERAL REAL, Guadalajara",20.665364,-103.3312438
64,PARQUE INDUST EL ALA,FUNDICION,2131,44490,Guadalajara,"FUNDICION 2131, PARQUE INDUST EL ALA, Guadalajara",20.6266889,-103.3338499
269,REVOLUCION SEGUNDA SECCION,REVOLUCION,51,45200,Zapopan,"REVOLUCION 51, REVOLUCION SEGUNDA SECCION, Zapopan",20.85476958,-103.42562918
31,OBLATOS PONIENTE,JUAN PABLO II,3165,44700,Guadalajara,"JUAN PABLO II 3165, OBLATOS PONIENTE, Guadalajara",20.70162171,-103.28662543
28,OBREROS D L CONSTRUC,ABEDUL,274,44900,Guadalajara,"ABEDUL 274, OBREROS D L CONSTRUC, Guadalajara",20.6545689,-103.3645921
244,SANTA ANA TEPETITLAN,HIDALGO,35,45230,Zapopan,"HIDALGO 35, SANTA ANA TEPETITLAN, Zapopan",20.6208991,-103.456008
72,LADRON DE GUEVARA,FRAY LUIS DE PA,443,44600,Guadalajara,"FRAY LUIS DE PA 443, LADRON DE GUEVARA, Guadalajara",20.6842089,-103.379311
103,U H EL SAUZ INF,JAIME TORRES B,3090,44987,Guadalajara,"JAIME TORRES B 3090, U H EL SAUZ INF, Guadalajara",20.623719,-103.3945749
43,ARTESANOS,INDEPENDENCIA,919,44200,Guadalajara,"INDEPENDENCIA 919, ARTESANOS, Guadalajara",20.678064,-103.356838
268,TABACHINES,PASEO DE LOS AV,3101,45188,Zapopan,"PASEO DE LOS AV 3101, TABACHINES, Zapopan",20.74189052,-103.36275942
99,TRANSITO,AV CIRCUNVALANC,479,44298,Guadalajara,"AV CIRCUNVALANC 479, TRANSITO, Guadalajara",20.7038709,-103.3370089
178,CONJ LOMAS ALTAS,PASEO DEL ARCO,4098,45128,Zapopan,"PASEO DEL ARCO 4098, CONJ LOMAS ALTAS, Zapopan",20.6859952,-103.4110242
27,SANTA ELENA,ASTURIAS,1581,44230,Guadalajara,"ASTURIAS 1581, SANTA ELENA, Guadalajara",20.7145639,-103.337542
161,PRADOS  GUADALUPE,G ROSSINI,428,45030,Zapopan,"G ROSSINI 428, PRADOS  GUADALUPE, Zapopan",20.6686337,-103.4349976
191,LA MARTINICA,PASEO DE LOS AL,79,45185,Zapopan,"PASEO DE LOS AL 79, LA MARTINICA, Zapopan",20.749005,-103.3596259
168,PARAISOS DEL COLLY,GALEANA,1068,45069,Zapopan,"GALEANA 1068, PARAISOS DEL COLLY, Zapopan",20.6508438,-103.4542078
139,JARDINES DE LA CRUZ,REYES CATOLICOS,2151,44950,Guadalajara,"REYES CATOLICOS 2151, JARDINES DE LA CRUZ, Guadalajara",20.64629179,-103.37634047
126,ARANDAS,HACIENDA DEL CO,3363,44720,Guadalajara,"HACIENDA DEL CO 3363, ARANDAS, Guadalajara",20.69041905,-103.28173759
189,EJIDAL LOMA BONITA,PEDRO MORENO,3308,45085,Zapopan,"PEDRO MORENO 3308, EJIDAL LOMA BONITA, Zapopan",20.6317603,-103.4051996
116,LOMAS DE POLANCO,JOSE CARRILLO,3528,44960,Guadalajara,"JOSE CARRILLO 3528, LOMAS DE POLANCO, Guadalajara",20.6307235,-103.3795677
172,JARDINES DEL VERGEL,JARDIN DE NARDO,1527,45180,Zapopan,"JARDIN DE NARDO 1527, JARDINES DEL VERGEL, Zapopan",20.7437494,-103.3705966
50,JARDINES DE LA CRUZ,ISLA MADAGASCAR,3111,44950,Guadalajara,"ISLA MADAGASCAR 3111, JARDINES DE LA CRUZ, Guadalajara",20.63864,-103.386237
282,REAL DE TESISTAN,PASEO DE LA ARB,176,45200,Zapopan,"PASEO DE LA ARB 176, REAL DE TESISTAN, Zapopan",20.6140105,-103.4564312
141,SAN JUAN BOSCO,FELIX BERNARDEL,428,44730,Guadalajara,"FELIX BERNARDEL 428, SAN JUAN BOSCO, Guadalajara",20.6690339,-103.3025698
122,U. H. BENITO JUAREZ II,CREDITO,4049,44770,Guadalajara,"CREDITO 4049, U. H. BENITO JUAREZ II, Guadalajara",20.6661078,-103.2755658
45,POLANQUITO,MIGUEL MACIAS,3653,44969,Guadalajara,"MIGUEL MACIAS 3653, POLANQUITO, Guadalajara",20.618594,-103.37202
23,BALCONES DE OBLATOS,HACIENDA DEL CA,2275,44720,Guadalajara,"HACIENDA DEL CA 2275, BALCONES DE OBLATOS, Guadalajara",20.68696384,-103.28869462
93,SAN VICENTE,PUERTO SOTO LA,2280,44330,Guadalajara,"PUERTO SOTO LA 2280, SAN VICENTE, Guadalajara",20.7045566,-103.314453
226,ARENALES TAPATIOS,CROMITA,69,45066,Zapopan,"CROMITA 69, ARENALES TAPATIOS, Zapopan",20.633538,-103.4592391
106,PARQUE REVOLUCION,AV MIGUEL HIDAL,469,44100,Guadalajara,"AV MIGUEL HIDAL 469, PARQUE REVOLUCION, Guadalajara",20.679603,-103.350983
25,HELIODORO HERNANDEZ,CELIA PACHECO,3713,44720,Guadalajara,"CELIA PACHECO 3713, HELIODORO HERNANDEZ, Guadalajara",20.696344,-103.2789
156,RESIDENCIAL TESISTAN,PARQUE MEXICANO,150,45200,Zapopan,"PARQUE MEXICANO 150, RESIDENCIAL TESISTAN, Zapopan",20.665307,-103.40409989
196,AGRICOLA,OBELISCO,138,45236,Zapopan,"OBELISCO 138, AGRICOLA, Zapopan",20.616065,-103.432436
7,MODERNA,AV ESPANA,1092,44190,Guadalajara,"AV ESPANA 1092, MODERNA, Guadalajara",20.659424,-103.3531261
222,LA ESTRADA,HIDALAGO,6,45200,Zapopan,"HIDALAGO 6, LA ESTRADA, Zapopan",20.79264101,-103.47565388
48,RANCHO NUEVO,DOMINGO RAMIRE,1150,44240,Guadalajara,"DOMINGO RAMIRE 1150, RANCHO NUEVO, Guadalajara",20.7208786,-103.3313266
35,LAGOS D OTE ZONA TET,LICURGO,336,44770,Guadalajara,"LICURGO 336, LAGOS D OTE ZONA TET, Guadalajara",20.665926,-103.288257
12,BEATRIZ HERNANDEZ,MARGARITA GUTIE,3497,44760,Guadalajara,"MARGARITA GUTIE 3497, BEATRIZ HERNANDEZ, Guadalajara",20.6814079,-103.284874
235,FRACC LOS PINOS,AV  COMPOSITORE,3850,45120,Zapopan,"AV  COMPOSITORE 3850, FRACC LOS PINOS, Zapopan",20.6046765,-103.4348944
26,OBLATOS,AV JUAN PABLO L,3165,44700,Guadalajara,"AV JUAN PABLO L 3165, OBLATOS, Guadalajara",20.6982095,-103.295162
128,JARDINES DE LA CRUZ,AV ISALA RAZA,2460,44950,Guadalajara,"AV ISALA RAZA 2460, JARDINES DE LA CRUZ, Guadalajara",20.634922,-103.391242
51,LOMAS DEL PRADERO,AV PRESIDENTE,2235,44840,Guadalajara,"AV PRESIDENTE 2235, LOMAS DEL PRADERO, Guadalajara",20.648519,-103.3130901
136,MIRAVALLE,MAURICIO CAMPOS,512,44990,Guadalajara,"MAURICIO CAMPOS 512, MIRAVALLE, Guadalajara",20.6094738,-103.3478201
101,JARDINES DEL NILO,MANUEL RIVERA C,2818,44860,Guadalajara,"MANUEL RIVERA C 2818, JARDINES DEL NILO, Guadalajara",20.6459499,-103.3015471
110,OBLATOS PONIENTE,HDA LAS CRUCES,2158,44700,Guadalajara,"HDA LAS CRUCES 2158, OBLATOS PONIENTE, Guadalajara",20.69361,-103.2988478
217,VILLA FONTANA DIAMANTE,ARENISCA,1896,45200,Zapopan,"ARENISCA 1896, VILLA FONTANA DIAMANTE, Zapopan",20.77322945,-103.4750089
76,LOMAS DL PARAISO 1,RAFAEL CARDENAS,290,44250,Guadalajara,"RAFAEL CARDENAS 290, LOMAS DL PARAISO 1, Guadalajara",20.724967,-103.320318
114,TETLAN,AURELIA GUEVARA,3518,44820,Guadalajara,"AURELIA GUEVARA 3518, TETLAN, Guadalajara",20.6555499,-103.2887908
21,PENAL,PEDRO CELESTINO,482,44730,Guadalajara,"PEDRO CELESTINO 482, PENAL, Guadalajara",20.678154,-103.319812
57,LOS ALMENDROS,ANTONIO GARCIA,3912,44240,Guadalajara,"ANTONIO GARCIA 3912, LOS ALMENDROS, Guadalajara",20.71472097,-103.32988718
253,NUEVO MEXICO,6 DE ENERO,3239,45138,Zapopan,"6 DE ENERO 3239, NUEVO MEXICO, Zapopan",20.75714709,-103.43247582
257,PARQUES DE ZAPOPAN,OPALO,14,45138,Zapopan,"OPALO 14, PARQUES DE ZAPOPAN, Zapopan",20.7473862,-103.4188519
74,BENITO JUAREZ,JUAN MANUEL RUV,1992,45199,Guadalajara,"JUAN MANUEL RUV 1992, BENITO JUAREZ, Guadalajara",20.6786141,-103.361751
224,COPALITA,AV AMARANTO,175,45200,Zapopan,"AV AMARANTO 175, COPALITA, Zapopan",20.80905867,-103.45311198
70,SAN MARCOS,CANTERA,819,44330,Guadalajara,"CANTERA 819, SAN MARCOS, Guadalajara",20.696713,-103.315329
182,SAN JUAN DE OCOTAN,MIGUEL MIRAMON,13,45019,Zapopan,"MIGUEL MIRAMON 13, SAN JUAN DE OCOTAN, Zapopan",20.764462,-103.452206
119,BOSQUES D L VICTORIA,FAUNA,2765,44540,Guadalajara,"FAUNA 2765, BOSQUES D L VICTORIA, Guadalajara",20.644029,-103.388121
10,MARAVILLA,HACIENDA DE GUA,1124,44700,Guadalajara,"HACIENDA DE GUA 1124, MARAVILLA, Guadalajara",20.7016579,-103.306797
62,SAN VICENTE,MONTES MARCIANO,2173,44330,Guadalajara,"MONTES MARCIANO 2173, SAN VICENTE, Guadalajara",20.70378,-103.3159849
142,18 DE MARZO,NATIVIDAD MACIA,1326,44960,Guadalajara,"NATIVIDAD MACIA 1326, 18 DE MARZO, Guadalajara",20.6332169,-103.3695316
58,RESIDENCIAL LA CRUZ,ISLA ABACO,3086,44950,Guadalajara,"ISLA ABACO 3086, RESIDENCIAL LA CRUZ, Guadalajara",20.637418,-103.37829
251,REAL DE TESISTAN,PRIVADA EMILIAN,28,45200,Zapopan,"PRIVADA EMILIAN 28, REAL DE TESISTAN, Zapopan",20.79364007,-103.4744717
111,OBLATOS PONIENTE,HACIENDA LA PUR,2415,44700,Guadalajara,"HACIENDA LA PUR 2415, OBLATOS PONIENTE, Guadalajara",20.701229,-103.2951931
153,MIRAMAR,BAHIA MAGDALENA,5,45060,Zapopan,"BAHIA MAGDALENA 5, MIRAMAR, Zapopan",20.6407449,-103.4490608
237,VICENTE GUERRERO,C CEDROS,15,45134,Zapopan,"C CEDROS 15, VICENTE GUERRERO, Zapopan",20.741835,-103.3386413
143,VALENTIN GOMEZ FARIA,JUAN DE DIOS CO,12,44977,Guadalajara,"JUAN DE DIOS CO 12, VALENTIN GOMEZ FARIA, Guadalajara",20.6166636,-103.36543282
263,INF LA TUZANIA,CAPULINES,40,45138,Zapopan,"CAPULINES 40, INF LA TUZANIA, Zapopan",20.731825,-103.418699
